{
  "metadata": {
    "total_places": 285,
    "total_bio_references": 1120
  },
  "places": {
    "القاهرة": {
      "lat": 30.0444,
      "lon": 31.2357,
      "modern_name": "Kahire",
      "region": "Mısır",
      "bio_count": 68
    },
    "قرطبة": {
      "lat": 37.8882,
      "lon": -4.7794,
      "modern_name": "Kurtuba",
      "region": "İspanya",
      "bio_count": 65
    },
    "المدينة": {
      "lat": 24.4672,
      "lon": 39.6024,
      "modern_name": "Medine",
      "region": "S.Arabistan",
      "bio_count": 59
    },
    "القيروان": {
      "lat": 35.6804,
      "lon": 10.0963,
      "modern_name": "Kayrevan",
      "region": "Tunus",
      "bio_count": 30
    },
    "حضرموت": {
      "lat": 15.3547,
      "lon": 48.5164,
      "modern_name": "Hadramevt",
      "region": "Yemen",
      "bio_count": 30
    },
    "إشبيلية": {
      "lat": 37.3891,
      "lon": -5.9845,
      "modern_name": "İşbîliye/Sevilla",
      "region": "İspanya",
      "bio_count": 26
    },
    "اليمن": {
      "lat": 15.5,
      "lon": 44.0,
      "modern_name": "Yemen",
      "region": "Yemen",
      "bio_count": 26
    },
    "أصبهان": {
      "lat": 32.6546,
      "lon": 51.668,
      "modern_name": "İsfahan",
      "region": "İran",
      "bio_count": 24
    },
    "تونس": {
      "lat": 36.8065,
      "lon": 10.1815,
      "modern_name": "Tunus",
      "region": "Tunus",
      "bio_count": 23
    },
    "الإسكندرية": {
      "lat": 31.2001,
      "lon": 29.9187,
      "modern_name": "İskenderiye",
      "region": "Mısır",
      "bio_count": 23
    },
    "نيسابور": {
      "lat": 36.2132,
      "lon": 58.7962,
      "modern_name": "Nîşâbur",
      "region": "İran",
      "bio_count": 22
    },
    "المغرب": {
      "lat": 33.0,
      "lon": -5.0,
      "modern_name": "Mağrib",
      "region": "Fas",
      "bio_count": 19
    },
    "بخارى": {
      "lat": 39.7681,
      "lon": 64.4556,
      "modern_name": "Buhara",
      "region": "Özbekistan",
      "bio_count": 18
    },
    "نجد": {
      "lat": 24.5,
      "lon": 45.0,
      "modern_name": "Necd",
      "region": "S.Arabistan",
      "bio_count": 17
    },
    "مراكش": {
      "lat": 31.6295,
      "lon": -7.9811,
      "modern_name": "Marakeş",
      "region": "Fas",
      "bio_count": 14
    },
    "غرناطة": {
      "lat": 37.1773,
      "lon": -3.5986,
      "modern_name": "Gırnâta/Granada",
      "region": "İspanya",
      "bio_count": 14
    },
    "بلنسية": {
      "lat": 39.4699,
      "lon": -0.3763,
      "modern_name": "Belensiye/Valencia",
      "region": "İspanya",
      "bio_count": 14
    },
    "الطائف": {
      "lat": 21.2703,
      "lon": 40.4158,
      "modern_name": "Tâif",
      "region": "S.Arabistan",
      "bio_count": 14
    },
    "هراة": {
      "lat": 34.3529,
      "lon": 62.204,
      "modern_name": "Herat",
      "region": "Afganistan",
      "bio_count": 14
    },
    "الحلة": {
      "lat": 32.4684,
      "lon": 44.4243,
      "modern_name": "Hille",
      "region": "Irak",
      "bio_count": 13
    },
    "شيراز": {
      "lat": 29.5918,
      "lon": 52.5837,
      "modern_name": "Şîrâz",
      "region": "İran",
      "bio_count": 11
    },
    "واسط": {
      "lat": 32.1942,
      "lon": 46.2614,
      "modern_name": "Vâsıt",
      "region": "Irak",
      "bio_count": 11
    },
    "تلمسان": {
      "lat": 34.8828,
      "lon": -1.3167,
      "modern_name": "Tlemsen",
      "region": "Cezayir",
      "bio_count": 11
    },
    "المدينة المنورة": {
      "lat": 24.4672,
      "lon": 39.6024,
      "modern_name": "Medine",
      "region": "S.Arabistan",
      "bio_count": 10
    },
    "جرجان": {
      "lat": 36.8386,
      "lon": 54.444,
      "modern_name": "Gürgân",
      "region": "İran",
      "bio_count": 10
    },
    "الري": {
      "lat": 35.5849,
      "lon": 51.4513,
      "modern_name": "Rey",
      "region": "İran",
      "bio_count": 10
    },
    "نابلس": {
      "lat": 32.2211,
      "lon": 35.2544,
      "modern_name": "Nablus",
      "region": "Filistin",
      "bio_count": 9
    },
    "الأندلس": {
      "lat": 37.5,
      "lon": -4.5,
      "modern_name": "Endülüs",
      "region": "İspanya",
      "bio_count": 9
    },
    "طرابلس الغرب": {
      "lat": 32.9022,
      "lon": 13.18,
      "modern_name": "Trablus",
      "region": "Libya",
      "bio_count": 8
    },
    "سوس": {
      "lat": 30.4,
      "lon": -9.2,
      "modern_name": "Sûs",
      "region": "Fas",
      "bio_count": 8
    },
    "طليطلة": {
      "lat": 39.8628,
      "lon": -4.0273,
      "modern_name": "Tuleytula/Toledo",
      "region": "İspanya",
      "bio_count": 8
    },
    "خوارزم": {
      "lat": 41.55,
      "lon": 60.6333,
      "modern_name": "Harezm",
      "region": "Özbekistan",
      "bio_count": 8
    },
    "بعلبك": {
      "lat": 34.0047,
      "lon": 36.211,
      "modern_name": "Ba'lebek",
      "region": "Lübnan",
      "bio_count": 8
    },
    "بيت المقدس": {
      "lat": 31.7683,
      "lon": 35.2137,
      "modern_name": "Kudüs",
      "region": "Filistin",
      "bio_count": 7
    },
    "سلا": {
      "lat": 34.0531,
      "lon": -6.7986,
      "modern_name": "Selâ",
      "region": "Fas",
      "bio_count": 7
    },
    "الجزائر": {
      "lat": 36.7538,
      "lon": 3.0588,
      "modern_name": "Cezayir",
      "region": "Cezayir",
      "bio_count": 7
    },
    "خراسان": {
      "lat": 35.0,
      "lon": 59.0,
      "modern_name": "Horasan",
      "region": "İran",
      "bio_count": 7
    },
    "الشام": {
      "lat": 33.5,
      "lon": 36.3,
      "modern_name": "Şam/Bilâdüşşâm",
      "region": "Suriye",
      "bio_count": 7
    },
    "سمرقند": {
      "lat": 39.6542,
      "lon": 66.9597,
      "modern_name": "Semerkand",
      "region": "Özbekistan",
      "bio_count": 7
    },
    "قسنطينة": {
      "lat": 36.365,
      "lon": 6.6147,
      "modern_name": "Kostantîne",
      "region": "Cezayir",
      "bio_count": 6
    },
    "أصفهان": {
      "lat": 32.6546,
      "lon": 51.668,
      "modern_name": "İsfahan",
      "region": "İran",
      "bio_count": 6
    },
    "مرو": {
      "lat": 37.6639,
      "lon": 62.1597,
      "modern_name": "Merv",
      "region": "Türkmenistan",
      "bio_count": 6
    },
    "بلخ": {
      "lat": 36.7553,
      "lon": 66.8975,
      "modern_name": "Belh",
      "region": "Afganistan",
      "bio_count": 5
    },
    "إربل": {
      "lat": 36.1911,
      "lon": 44.0119,
      "modern_name": "Erbil",
      "region": "Irak",
      "bio_count": 5
    },
    "طبرستان": {
      "lat": 36.3,
      "lon": 53.0,
      "modern_name": "Taberistân",
      "region": "İran",
      "bio_count": 5
    },
    "الحجاز": {
      "lat": 22.0,
      "lon": 40.0,
      "modern_name": "Hicaz",
      "region": "S.Arabistan",
      "bio_count": 5
    },
    "اللاذقية": {
      "lat": 35.5197,
      "lon": 35.7735,
      "modern_name": "Lazkiye",
      "region": "Suriye",
      "bio_count": 5
    },
    "تبريز": {
      "lat": 38.08,
      "lon": 46.2919,
      "modern_name": "Tebriz",
      "region": "İran",
      "bio_count": 5
    },
    "سرقسطة": {
      "lat": 41.6488,
      "lon": -0.8891,
      "modern_name": "Sarakusta/Zaragoza",
      "region": "İspanya",
      "bio_count": 5
    },
    "الحيرة": {
      "lat": 31.9956,
      "lon": 44.4561,
      "modern_name": "Hîre",
      "region": "Irak",
      "bio_count": 5
    },
    "القطيف": {
      "lat": 26.5439,
      "lon": 50.0108,
      "modern_name": "Katîf",
      "region": "S.Arabistan",
      "bio_count": 5
    },
    "وادي آش": {
      "lat": 37.3167,
      "lon": -3.4333,
      "modern_name": "Vâdi Âş/Guadix",
      "region": "İspanya",
      "bio_count": 5
    },
    "شريش": {
      "lat": 36.6851,
      "lon": -6.1369,
      "modern_name": "Şerîş/Jerez",
      "region": "İspanya",
      "bio_count": 4
    },
    "يافا": {
      "lat": 32.0539,
      "lon": 34.7498,
      "modern_name": "Yafa",
      "region": "Filistin",
      "bio_count": 4
    },
    "شنقيط": {
      "lat": 20.46,
      "lon": -12.35,
      "modern_name": "Şinkît",
      "region": "Moritanya",
      "bio_count": 4
    },
    "بلدة": {
      "lat": 33.85,
      "lon": 35.6,
      "modern_name": "Belde",
      "region": "Lübnan",
      "bio_count": 4
    },
    "الدينور": {
      "lat": 34.75,
      "lon": 47.4167,
      "modern_name": "Dînever",
      "region": "İran",
      "bio_count": 4
    },
    "شاطبة": {
      "lat": 39.1256,
      "lon": -0.5175,
      "modern_name": "Şâtıbe/Xàtiva",
      "region": "İspanya",
      "bio_count": 4
    },
    "تكريت": {
      "lat": 34.5957,
      "lon": 43.6814,
      "modern_name": "Tikrit",
      "region": "Irak",
      "bio_count": 4
    },
    "فلسطين": {
      "lat": 31.9,
      "lon": 35.2,
      "modern_name": "Filistin",
      "region": "Filistin",
      "bio_count": 4
    },
    "طهران": {
      "lat": 35.6892,
      "lon": 51.389,
      "modern_name": "Tahran",
      "region": "İran",
      "bio_count": 4
    },
    "الأهواز": {
      "lat": 31.3183,
      "lon": 48.6706,
      "modern_name": "Ahvâz",
      "region": "İran",
      "bio_count": 4
    },
    "عمان": {
      "lat": 31.9539,
      "lon": 35.9106,
      "modern_name": "Amman",
      "region": "Ürdün",
      "bio_count": 4
    },
    "صعدة": {
      "lat": 16.94,
      "lon": 43.76,
      "modern_name": "Sa'de",
      "region": "Yemen",
      "bio_count": 4
    },
    "غزة": {
      "lat": 31.5017,
      "lon": 34.4668,
      "modern_name": "Gazze",
      "region": "Filistin",
      "bio_count": 3
    },
    "الصالحية بدمشق": {
      "lat": 33.525,
      "lon": 36.32,
      "modern_name": "Sâlihiye",
      "region": "Suriye",
      "bio_count": 3
    },
    "صفاقس": {
      "lat": 34.7406,
      "lon": 10.7603,
      "modern_name": "Safâkıs",
      "region": "Tunus",
      "bio_count": 3
    },
    "مالقة": {
      "lat": 36.7213,
      "lon": -4.4214,
      "modern_name": "Mâlaka/Malaga",
      "region": "İspanya",
      "bio_count": 3
    },
    "صفد": {
      "lat": 32.9646,
      "lon": 35.4968,
      "modern_name": "Safed",
      "region": "Filistin",
      "bio_count": 3
    },
    "الجند": {
      "lat": 13.55,
      "lon": 44.1333,
      "modern_name": "Cund",
      "region": "Yemen",
      "bio_count": 3
    },
    "ماردين": {
      "lat": 37.3212,
      "lon": 40.7245,
      "modern_name": "Mardin",
      "region": "Türkiye",
      "bio_count": 3
    },
    "جرجا": {
      "lat": 26.34,
      "lon": 31.8917,
      "modern_name": "Cirgâ",
      "region": "Mısır",
      "bio_count": 3
    },
    "دير القمر": {
      "lat": 33.7,
      "lon": 35.55,
      "modern_name": "Deyrülkamer",
      "region": "Lübnan",
      "bio_count": 3
    },
    "الأنبار": {
      "lat": 33.426,
      "lon": 43.2946,
      "modern_name": "Enbâr",
      "region": "Irak",
      "bio_count": 3
    },
    "أسوان": {
      "lat": 24.0889,
      "lon": 32.8998,
      "modern_name": "Asvan",
      "region": "Mısır",
      "bio_count": 3
    },
    "النبطية": {
      "lat": 33.3833,
      "lon": 35.4833,
      "modern_name": "Nebatiye",
      "region": "Lübnan",
      "bio_count": 3
    },
    "جدة": {
      "lat": 21.4858,
      "lon": 39.1925,
      "modern_name": "Cidde",
      "region": "S.Arabistan",
      "bio_count": 3
    },
    "عنيزة": {
      "lat": 26.0902,
      "lon": 43.9694,
      "modern_name": "Uneyze",
      "region": "S.Arabistan",
      "bio_count": 3
    },
    "جيان": {
      "lat": 37.7796,
      "lon": -3.7849,
      "modern_name": "Ceyyân/Jaén",
      "region": "İspanya",
      "bio_count": 3
    },
    "تعز": {
      "lat": 13.5789,
      "lon": 44.0219,
      "modern_name": "Ta'iz",
      "region": "Yemen",
      "bio_count": 3
    },
    "الهند": {
      "lat": 23.0,
      "lon": 78.0,
      "modern_name": "Hindistan",
      "region": "Hindistan",
      "bio_count": 3
    },
    "الكاظمية": {
      "lat": 33.3781,
      "lon": 44.349,
      "modern_name": "Kâzımiye",
      "region": "Irak",
      "bio_count": 3
    },
    "سجستان": {
      "lat": 31.5,
      "lon": 61.5,
      "modern_name": "Sicistân",
      "region": "İran/Afganistan",
      "bio_count": 3
    },
    "مكناسة": {
      "lat": 33.8935,
      "lon": -5.5473,
      "modern_name": "Meknes",
      "region": "Fas",
      "bio_count": 3
    },
    "غزة بفلسطين": {
      "lat": 31.5017,
      "lon": 34.4668,
      "modern_name": "Gazze",
      "region": "Filistin",
      "bio_count": 2
    },
    "شهارة": {
      "lat": 16.1667,
      "lon": 43.7167,
      "modern_name": "Şehâre",
      "region": "Yemen",
      "bio_count": 2
    },
    "دسوق": {
      "lat": 31.1333,
      "lon": 30.65,
      "modern_name": "Desûk",
      "region": "Mısır",
      "bio_count": 2
    },
    "طرابلسالغرب": {
      "lat": 32.9022,
      "lon": 13.18,
      "modern_name": "Trablus",
      "region": "Libya",
      "bio_count": 2
    },
    "سيوون": {
      "lat": 15.9333,
      "lon": 48.7833,
      "modern_name": "Seyyûn",
      "region": "Yemen",
      "bio_count": 2
    },
    "عسير": {
      "lat": 19.0,
      "lon": 42.5,
      "modern_name": "Asîr",
      "region": "S.Arabistan",
      "bio_count": 2
    },
    "بوسنة": {
      "lat": 43.85,
      "lon": 18.35,
      "modern_name": "Bosna",
      "region": "Bosna-Hersek",
      "bio_count": 2
    },
    "الاسكندرية": {
      "lat": 31.2001,
      "lon": 29.9187,
      "modern_name": "İskenderiye",
      "region": "Mısır",
      "bio_count": 2
    },
    "سيواس": {
      "lat": 39.7477,
      "lon": 37.0179,
      "modern_name": "Sivas",
      "region": "Türkiye",
      "bio_count": 2
    },
    "طرابلسالشام": {
      "lat": 34.4367,
      "lon": 35.8497,
      "modern_name": "Trablus",
      "region": "Lübnan",
      "bio_count": 2
    },
    "تهامة": {
      "lat": 15.0,
      "lon": 43.0,
      "modern_name": "Tihâme",
      "region": "Yemen",
      "bio_count": 2
    },
    "الشوير": {
      "lat": 33.8667,
      "lon": 35.7,
      "modern_name": "Şuveyr",
      "region": "Lübnan",
      "bio_count": 2
    },
    "سوق الغرب": {
      "lat": 33.7333,
      "lon": 35.55,
      "modern_name": "Sûkülgarb",
      "region": "Lübnan",
      "bio_count": 2
    },
    "قنوج": {
      "lat": 27.0538,
      "lon": 79.9133,
      "modern_name": "Kannavç",
      "region": "Hindistan",
      "bio_count": 2
    },
    "الأردن": {
      "lat": 31.95,
      "lon": 35.95,
      "modern_name": "Ürdün",
      "region": "Ürdün",
      "bio_count": 2
    },
    "طنجة": {
      "lat": 35.7595,
      "lon": -5.834,
      "modern_name": "Tanca",
      "region": "Fas",
      "bio_count": 2
    },
    "بروسة": {
      "lat": 40.1885,
      "lon": 29.061,
      "modern_name": "Bursa",
      "region": "Türkiye",
      "bio_count": 2
    },
    "وادي الحجارة": {
      "lat": 40.6333,
      "lon": -2.1167,
      "modern_name": "Vâdilhicâre/Guadalajara",
      "region": "İspanya",
      "bio_count": 2
    },
    "الجزيرة الفراتية": {
      "lat": 36.0,
      "lon": 41.0,
      "modern_name": "el-Cezîre",
      "region": "Irak/Suriye",
      "bio_count": 2
    },
    "إسطنبول": {
      "lat": 41.0082,
      "lon": 28.9784,
      "modern_name": "İstanbul",
      "region": "Türkiye",
      "bio_count": 2
    },
    "النعمانية": {
      "lat": 32.7764,
      "lon": 45.5453,
      "modern_name": "Numaniye",
      "region": "Irak",
      "bio_count": 2
    },
    "الكرخ": {
      "lat": 33.325,
      "lon": 44.375,
      "modern_name": "Kerh",
      "region": "Irak",
      "bio_count": 2
    },
    "سامراء": {
      "lat": 34.1956,
      "lon": 43.8753,
      "modern_name": "Sâmerrâ",
      "region": "Irak",
      "bio_count": 2
    },
    "الفيوم": {
      "lat": 29.31,
      "lon": 30.8418,
      "modern_name": "Feyyum",
      "region": "Mısır",
      "bio_count": 2
    },
    "دهلي": {
      "lat": 28.6139,
      "lon": 77.209,
      "modern_name": "Delhi",
      "region": "Hindistan",
      "bio_count": 2
    },
    "قوص": {
      "lat": 25.9152,
      "lon": 32.7649,
      "modern_name": "Kûs",
      "region": "Mısır",
      "bio_count": 2
    },
    "معرة النعمان": {
      "lat": 35.6358,
      "lon": 36.675,
      "modern_name": "Ma'arretünnumân",
      "region": "Suriye",
      "bio_count": 2
    },
    "أوريولة": {
      "lat": 38.0847,
      "lon": -0.9444,
      "modern_name": "Orihuela",
      "region": "İspanya",
      "bio_count": 2
    },
    "صور": {
      "lat": 33.2705,
      "lon": 35.1965,
      "modern_name": "Sûr/Tyr",
      "region": "Lübnan",
      "bio_count": 2
    },
    "باجة": {
      "lat": 36.7258,
      "lon": 9.1817,
      "modern_name": "Bâce",
      "region": "Tunus",
      "bio_count": 2
    },
    "نصيبين": {
      "lat": 37.07,
      "lon": 41.215,
      "modern_name": "Nusaybin",
      "region": "Türkiye",
      "bio_count": 2
    },
    "الرقة": {
      "lat": 35.9594,
      "lon": 39.0103,
      "modern_name": "Rakka",
      "region": "Suriye",
      "bio_count": 2
    },
    "أنطاكية": {
      "lat": 36.2025,
      "lon": 36.1597,
      "modern_name": "Antakya",
      "region": "Türkiye",
      "bio_count": 2
    },
    "الحلة المزيدية": {
      "lat": 32.4684,
      "lon": 44.4243,
      "modern_name": "Hille",
      "region": "Irak",
      "bio_count": 2
    },
    "الكرك": {
      "lat": 31.184,
      "lon": 35.7053,
      "modern_name": "Kerek",
      "region": "Ürdün",
      "bio_count": 2
    },
    "تازة": {
      "lat": 34.21,
      "lon": -4.01,
      "modern_name": "Tâze",
      "region": "Fas",
      "bio_count": 2
    },
    "الصالحية": {
      "lat": 33.525,
      "lon": 36.32,
      "modern_name": "Sâlihiye",
      "region": "Suriye",
      "bio_count": 2
    },
    "السليمانية": {
      "lat": 35.5613,
      "lon": 45.4306,
      "modern_name": "Süleymaniye",
      "region": "Irak",
      "bio_count": 2
    },
    "أسيوط": {
      "lat": 27.181,
      "lon": 31.1837,
      "modern_name": "Asyut",
      "region": "Mısır",
      "bio_count": 2
    },
    "بجانة": {
      "lat": 36.95,
      "lon": -2.3667,
      "modern_name": "Becâne/Pechina",
      "region": "İspanya",
      "bio_count": 2
    },
    "زنجان": {
      "lat": 36.6736,
      "lon": 48.4787,
      "modern_name": "Zencan",
      "region": "İran",
      "bio_count": 2
    },
    "مراكش ووفاته بها": {
      "lat": 31.6295,
      "lon": -7.9811,
      "modern_name": "Marakeş",
      "region": "Fas",
      "bio_count": 2
    },
    "القسطنطينية": {
      "lat": 41.0082,
      "lon": 28.9784,
      "modern_name": "İstanbul",
      "region": "Türkiye",
      "bio_count": 2
    },
    "جبل عامل": {
      "lat": 33.3,
      "lon": 35.4,
      "modern_name": "Cebel-i Âmil",
      "region": "Lübnan",
      "bio_count": 2
    },
    "الرملة بفلسطين": {
      "lat": 31.9279,
      "lon": 34.8622,
      "modern_name": "Ramle",
      "region": "Filistin",
      "bio_count": 2
    },
    "بروسه": {
      "lat": 40.1885,
      "lon": 29.061,
      "modern_name": "Bursa",
      "region": "Türkiye",
      "bio_count": 2
    },
    "ورجلان": {
      "lat": 32.5,
      "lon": 5.3333,
      "modern_name": "Vercelân/Ouargla",
      "region": "Cezayir",
      "bio_count": 2
    },
    "الكوفة": {
      "lat": 32.0297,
      "lon": 44.4042,
      "modern_name": "Kûfe",
      "region": "Irak",
      "bio_count": 1
    },
    "ليبسيك": {
      "lat": 51.3397,
      "lon": 12.3731,
      "modern_name": "Leipzig",
      "region": "Almanya",
      "bio_count": 1
    },
    "البصرة": {
      "lat": 30.5085,
      "lon": 47.7804,
      "modern_name": "Basra",
      "region": "Irak",
      "bio_count": 1
    },
    "مرسية": {
      "lat": 37.9922,
      "lon": -1.1307,
      "modern_name": "Mürsiye/Murcia",
      "region": "İspanya",
      "bio_count": 1
    },
    "الموصل": {
      "lat": 36.335,
      "lon": 43.1189,
      "modern_name": "Musul",
      "region": "Irak",
      "bio_count": 1
    },
    "الأحساء": {
      "lat": 25.3748,
      "lon": 49.5875,
      "modern_name": "Ahsâ",
      "region": "S.Arabistan",
      "bio_count": 1
    },
    "همذان": {
      "lat": 34.7986,
      "lon": 48.5146,
      "modern_name": "Hemedan",
      "region": "İran",
      "bio_count": 1
    },
    "خوي": {
      "lat": 38.5503,
      "lon": 44.9522,
      "modern_name": "Hoy",
      "region": "İran",
      "bio_count": 1
    },
    "بغداد": {
      "lat": 33.3153,
      "lon": 44.3661,
      "modern_name": "Bağdat",
      "region": "Irak",
      "bio_count": 1
    },
    "دمشق": {
      "lat": 33.5138,
      "lon": 36.2765,
      "modern_name": "Şam/Dımaşk",
      "region": "Suriye",
      "bio_count": 1
    },
    "زبيد": {
      "lat": 14.195,
      "lon": 43.3153,
      "modern_name": "Zebîd",
      "region": "Yemen",
      "bio_count": 1
    },
    "درعة": {
      "lat": 30.05,
      "lon": -5.83,
      "modern_name": "Der'a",
      "region": "Fas",
      "bio_count": 1
    },
    "حمص": {
      "lat": 34.7324,
      "lon": 36.7137,
      "modern_name": "Humus",
      "region": "Suriye",
      "bio_count": 1
    },
    "بطليوس": {
      "lat": 38.8794,
      "lon": -6.9706,
      "modern_name": "Batalyevs/Badajoz",
      "region": "İspanya",
      "bio_count": 1
    },
    "حماة": {
      "lat": 35.1318,
      "lon": 36.7517,
      "modern_name": "Hama",
      "region": "Suriye",
      "bio_count": 1
    },
    "حلب": {
      "lat": 36.2021,
      "lon": 37.1343,
      "modern_name": "Halep",
      "region": "Suriye",
      "bio_count": 1
    },
    "مصر": {
      "lat": 30.0444,
      "lon": 31.2357,
      "modern_name": "Mısır/Kahire",
      "region": "Mısır",
      "bio_count": 1
    },
    "قزوين": {
      "lat": 36.2688,
      "lon": 50.0041,
      "modern_name": "Kazvin",
      "region": "İran",
      "bio_count": 1
    },
    "رشيد": {
      "lat": 31.4047,
      "lon": 30.4189,
      "modern_name": "Reşid/Rosetta",
      "region": "Mısır",
      "bio_count": 1
    },
    "مكة": {
      "lat": 21.3891,
      "lon": 39.8579,
      "modern_name": "Mekke",
      "region": "S.Arabistan",
      "bio_count": 1
    },
    "فاس": {
      "lat": 34.0331,
      "lon": -5.0003,
      "modern_name": "Fes",
      "region": "Fas",
      "bio_count": 1
    },
    "سنباط": {
      "lat": 30.9,
      "lon": 31.1,
      "modern_name": "Sinbât",
      "region": "Mısır",
      "bio_count": 1
    },
    "أبرقوه": {
      "lat": 31.1283,
      "lon": 52.65,
      "modern_name": "Eberkûh",
      "region": "İran",
      "bio_count": 1
    },
    "شهرزور": {
      "lat": 35.3,
      "lon": 45.8667,
      "modern_name": "Şehrizor",
      "region": "Irak",
      "bio_count": 1
    },
    "صنعاء": {
      "lat": 15.3694,
      "lon": 44.191,
      "modern_name": "San'â",
      "region": "Yemen",
      "bio_count": 1
    },
    "النجف": {
      "lat": 32.0003,
      "lon": 44.336,
      "modern_name": "Necef",
      "region": "Irak",
      "bio_count": 1
    },
    "بيروت": {
      "lat": 33.8938,
      "lon": 35.5018,
      "modern_name": "Beyrut",
      "region": "Lübnan",
      "bio_count": 1
    },
    "طرابلس الشام": {
      "lat": 34.4367,
      "lon": 35.8497,
      "modern_name": "Trablus",
      "region": "Lübnan",
      "bio_count": 1
    },
    "دانية": {
      "lat": 38.8408,
      "lon": 0.0756,
      "modern_name": "Dâniye/Denia",
      "region": "İspanya",
      "bio_count": 1
    },
    "تطوان": {
      "lat": 35.5889,
      "lon": -5.3626,
      "modern_name": "Tıtvân",
      "region": "Fas",
      "bio_count": 1
    },
    "صيدا": {
      "lat": 33.5572,
      "lon": 35.3729,
      "modern_name": "Sayda/Sidon",
      "region": "Lübnan",
      "bio_count": 1
    },
    "طهطا": {
      "lat": 26.7672,
      "lon": 31.502,
      "modern_name": "Tahtâ",
      "region": "Mısır",
      "bio_count": 1
    },
    "البحرين": {
      "lat": 26.0667,
      "lon": 50.5577,
      "modern_name": "Bahreyn",
      "region": "Bahreyn",
      "bio_count": 1
    },
    "ذمار": {
      "lat": 14.5497,
      "lon": 44.3914,
      "modern_name": "Zimâr",
      "region": "Yemen",
      "bio_count": 1
    },
    "تادلة": {
      "lat": 32.5833,
      "lon": -6.25,
      "modern_name": "Tâdle",
      "region": "Fas",
      "bio_count": 1
    },
    "المرية": {
      "lat": 36.834,
      "lon": -2.4637,
      "modern_name": "Meriyye/Almería",
      "region": "İspanya",
      "bio_count": 1
    },
    "الرباط": {
      "lat": 34.0209,
      "lon": -6.8416,
      "modern_name": "Rabat",
      "region": "Fas",
      "bio_count": 1
    },
    "سلانيك": {
      "lat": 40.6401,
      "lon": 22.9444,
      "modern_name": "Selanik",
      "region": "Yunanistan",
      "bio_count": 1
    },
    "المصيصة": {
      "lat": 36.9564,
      "lon": 35.8596,
      "modern_name": "Misis",
      "region": "Türkiye",
      "bio_count": 1
    },
    "القدس": {
      "lat": 31.7683,
      "lon": 35.2137,
      "modern_name": "Kudüs",
      "region": "Filistin",
      "bio_count": 1
    },
    "بجاية": {
      "lat": 36.7508,
      "lon": 5.0842,
      "modern_name": "Bicâye",
      "region": "Cezayir",
      "bio_count": 1
    },
    "أبذة": {
      "lat": 38.2,
      "lon": -3.0167,
      "modern_name": "Ubede/Úbeda",
      "region": "İspanya",
      "bio_count": 1
    },
    "مغنيسا": {
      "lat": 38.6191,
      "lon": 27.4289,
      "modern_name": "Manisa",
      "region": "Türkiye",
      "bio_count": 1
    },
    "مكناس": {
      "lat": 33.8935,
      "lon": -5.5473,
      "modern_name": "Meknes",
      "region": "Fas",
      "bio_count": 1
    },
    "قسطمونة": {
      "lat": 41.388,
      "lon": 33.7753,
      "modern_name": "Kastamonu",
      "region": "Türkiye",
      "bio_count": 1
    },
    "جازان": {
      "lat": 16.8892,
      "lon": 42.5511,
      "modern_name": "Cîzân",
      "region": "S.Arabistan",
      "bio_count": 1
    },
    "تافلالت": {
      "lat": 31.75,
      "lon": -4.35,
      "modern_name": "Tâfîlâlt",
      "region": "Fas",
      "bio_count": 1
    },
    "ميافارقين": {
      "lat": 38.175,
      "lon": 40.4847,
      "modern_name": "Meyyâfârikîn/Silvan",
      "region": "Türkiye",
      "bio_count": 1
    },
    "تيفاش": {
      "lat": 35.42,
      "lon": 8.15,
      "modern_name": "Tîfâş",
      "region": "Cezayir",
      "bio_count": 1
    },
    "حصنكيفى": {
      "lat": 37.7167,
      "lon": 41.4167,
      "modern_name": "Hasankeyf",
      "region": "Türkiye",
      "bio_count": 1
    },
    "فاراب": {
      "lat": 42.2989,
      "lon": 68.2214,
      "modern_name": "Fârâb/Otrar",
      "region": "Kazakistan",
      "bio_count": 1
    },
    "سنجار": {
      "lat": 36.3166,
      "lon": 41.8666,
      "modern_name": "Sincar",
      "region": "Irak",
      "bio_count": 1
    },
    "بلبيس": {
      "lat": 30.4222,
      "lon": 31.5611,
      "modern_name": "Bilbeys",
      "region": "Mısır",
      "bio_count": 1
    },
    "شقندة": {
      "lat": 37.875,
      "lon": -4.7833,
      "modern_name": "Şekunde/Secunda",
      "region": "İspanya",
      "bio_count": 1
    },
    "لكهنو": {
      "lat": 26.8467,
      "lon": 80.9462,
      "modern_name": "Leknev",
      "region": "Hindistan",
      "bio_count": 1
    },
    "زحلة": {
      "lat": 33.85,
      "lon": 35.9,
      "modern_name": "Zahlé",
      "region": "Lübnan",
      "bio_count": 1
    },
    "سورية": {
      "lat": 34.8,
      "lon": 38.9,
      "modern_name": "Suriye",
      "region": "Suriye",
      "bio_count": 1
    },
    "لبنان": {
      "lat": 33.85,
      "lon": 35.85,
      "modern_name": "Lübnan",
      "region": "Lübnan",
      "bio_count": 1
    },
    "تهامة اليمن": {
      "lat": 15.0,
      "lon": 43.0,
      "modern_name": "Tihâme",
      "region": "Yemen",
      "bio_count": 1
    },
    "اليمامة": {
      "lat": 24.1,
      "lon": 47.3,
      "modern_name": "Yemâme",
      "region": "S.Arabistan",
      "bio_count": 1
    },
    "بعبدا": {
      "lat": 33.8333,
      "lon": 35.55,
      "modern_name": "Ba'abdâ",
      "region": "Lübnan",
      "bio_count": 1
    },
    "لندن": {
      "lat": 51.5074,
      "lon": -0.1278,
      "modern_name": "Londra",
      "region": "İngiltere",
      "bio_count": 1
    },
    "أستراباد": {
      "lat": 36.85,
      "lon": 54.48,
      "modern_name": "Esterâbâd",
      "region": "İran",
      "bio_count": 1
    },
    "ضمد": {
      "lat": 17.0833,
      "lon": 42.9,
      "modern_name": "Damed",
      "region": "S.Arabistan",
      "bio_count": 1
    },
    "جنابة": {
      "lat": 29.6,
      "lon": 50.85,
      "modern_name": "Cenâbe/Genaveh",
      "region": "İran",
      "bio_count": 1
    },
    "الحلة السيفية": {
      "lat": 32.4684,
      "lon": 44.4243,
      "modern_name": "Hille",
      "region": "Irak",
      "bio_count": 1
    },
    "المغرب الأقصى": {
      "lat": 33.0,
      "lon": -5.0,
      "modern_name": "Mağrib",
      "region": "Fas",
      "bio_count": 1
    },
    "عكبرا": {
      "lat": 33.7167,
      "lon": 44.2167,
      "modern_name": "Ukberâ",
      "region": "Irak",
      "bio_count": 1
    },
    "بندنيجين": {
      "lat": 34.0167,
      "lon": 45.3667,
      "modern_name": "Bendnicîn",
      "region": "Irak",
      "bio_count": 1
    },
    "الحائر": {
      "lat": 24.5,
      "lon": 46.75,
      "modern_name": "Hâir",
      "region": "S.Arabistan",
      "bio_count": 1
    },
    "كوكبان": {
      "lat": 15.5833,
      "lon": 43.8667,
      "modern_name": "Kevkebân",
      "region": "Yemen",
      "bio_count": 1
    },
    "الأعظمية": {
      "lat": 33.355,
      "lon": 44.3697,
      "modern_name": "A'zamiyye",
      "region": "Irak",
      "bio_count": 1
    },
    "الكوت": {
      "lat": 32.507,
      "lon": 45.8318,
      "modern_name": "Kût",
      "region": "Irak",
      "bio_count": 1
    },
    "اسطمبول": {
      "lat": 41.0082,
      "lon": 28.9784,
      "modern_name": "İstanbul",
      "region": "Türkiye",
      "bio_count": 1
    },
    "الرملة": {
      "lat": 31.9279,
      "lon": 34.8622,
      "modern_name": "Ramle",
      "region": "Filistin",
      "bio_count": 1
    },
    "قيصرية": {
      "lat": 38.7312,
      "lon": 35.4787,
      "modern_name": "Kayseri",
      "region": "Türkiye",
      "bio_count": 1
    },
    "السند": {
      "lat": 25.0,
      "lon": 68.0,
      "modern_name": "Sind",
      "region": "Pakistan",
      "bio_count": 1
    },
    "آيدين": {
      "lat": 37.8481,
      "lon": 27.8456,
      "modern_name": "Aydın",
      "region": "Türkiye",
      "bio_count": 1
    },
    "كركوك": {
      "lat": 35.4722,
      "lon": 44.3923,
      "modern_name": "Kerkük",
      "region": "Irak",
      "bio_count": 1
    },
    "ملطية": {
      "lat": 38.3552,
      "lon": 38.3095,
      "modern_name": "Malatya",
      "region": "Türkiye",
      "bio_count": 1
    },
    "هجر": {
      "lat": 25.38,
      "lon": 49.58,
      "modern_name": "Hecr",
      "region": "S.Arabistan",
      "bio_count": 1
    },
    "بعقلين": {
      "lat": 33.6667,
      "lon": 35.55,
      "modern_name": "Ba'klîn",
      "region": "Lübnan",
      "bio_count": 1
    },
    "النهروان": {
      "lat": 33.35,
      "lon": 44.5667,
      "modern_name": "Nehrevan",
      "region": "Irak",
      "bio_count": 1
    },
    "أذرعات": {
      "lat": 32.6167,
      "lon": 36.1,
      "modern_name": "Edraat/Der'a",
      "region": "Suriye",
      "bio_count": 1
    },
    "الحويزة": {
      "lat": 31.7333,
      "lon": 48.0833,
      "modern_name": "Hoveyze",
      "region": "İran",
      "bio_count": 1
    },
    "يابرة": {
      "lat": 38.5667,
      "lon": -7.9167,
      "modern_name": "Yâbure/Évora",
      "region": "Portekiz",
      "bio_count": 1
    },
    "الرحبة": {
      "lat": 34.9333,
      "lon": 40.0333,
      "modern_name": "Rahbe",
      "region": "Irak/Suriye",
      "bio_count": 1
    },
    "رندة": {
      "lat": 36.7425,
      "lon": -5.1661,
      "modern_name": "Runde/Ronda",
      "region": "İspanya",
      "bio_count": 1
    },
    "كربلاء": {
      "lat": 32.616,
      "lon": 44.0249,
      "modern_name": "Kerbelâ",
      "region": "Irak",
      "bio_count": 1
    },
    "داريا": {
      "lat": 33.4611,
      "lon": 36.2375,
      "modern_name": "Dâriyyâ",
      "region": "Suriye",
      "bio_count": 1
    },
    "الرياض": {
      "lat": 24.7136,
      "lon": 46.6753,
      "modern_name": "Riyad",
      "region": "S.Arabistan",
      "bio_count": 1
    },
    "سرخس": {
      "lat": 36.5469,
      "lon": 61.1567,
      "modern_name": "Serahs",
      "region": "Türkmenistan",
      "bio_count": 1
    },
    "بسكرة": {
      "lat": 34.8484,
      "lon": 5.7285,
      "modern_name": "Biskra",
      "region": "Cezayir",
      "bio_count": 1
    },
    "كليبولي": {
      "lat": 40.4111,
      "lon": 26.6722,
      "modern_name": "Gelibolu",
      "region": "Türkiye",
      "bio_count": 1
    },
    "أماسية": {
      "lat": 40.6499,
      "lon": 35.8353,
      "modern_name": "Amasya",
      "region": "Türkiye",
      "bio_count": 1
    },
    "الكويت": {
      "lat": 29.3117,
      "lon": 47.4818,
      "modern_name": "Küveyt",
      "region": "Kuveyt",
      "bio_count": 1
    },
    "العمادية": {
      "lat": 37.0833,
      "lon": 43.4833,
      "modern_name": "Amadiye",
      "region": "Irak",
      "bio_count": 1
    },
    "دير الزور": {
      "lat": 35.335,
      "lon": 40.1408,
      "modern_name": "Deyrüzzor",
      "region": "Suriye",
      "bio_count": 1
    },
    "أصيلة": {
      "lat": 35.4653,
      "lon": -6.0342,
      "modern_name": "Asîle",
      "region": "Fas",
      "bio_count": 1
    },
    "إيذج": {
      "lat": 31.7667,
      "lon": 50.15,
      "modern_name": "Îzec",
      "region": "İran",
      "bio_count": 1
    },
    "وزان": {
      "lat": 34.8067,
      "lon": -5.5756,
      "modern_name": "Vezzân",
      "region": "Fas",
      "bio_count": 1
    },
    "تريم": {
      "lat": 16.055,
      "lon": 49.0031,
      "modern_name": "Terîm",
      "region": "Yemen",
      "bio_count": 1
    },
    "حران": {
      "lat": 36.8649,
      "lon": 39.0289,
      "modern_name": "Harran",
      "region": "Türkiye",
      "bio_count": 1
    },
    "دمياط": {
      "lat": 31.4175,
      "lon": 31.8144,
      "modern_name": "Dimyat",
      "region": "Mısır",
      "bio_count": 1
    },
    "الناصرية": {
      "lat": 31.0442,
      "lon": 46.2575,
      "modern_name": "Nâsıriye",
      "region": "Irak",
      "bio_count": 1
    },
    "شلب": {
      "lat": 37.1893,
      "lon": -8.2475,
      "modern_name": "Şilb/Silves",
      "region": "Portekiz",
      "bio_count": 1
    },
    "شقورة": {
      "lat": 38.1,
      "lon": -2.6,
      "modern_name": "Şekûra/Segura",
      "region": "İspanya",
      "bio_count": 1
    },
    "ديار بكر": {
      "lat": 37.9144,
      "lon": 40.2306,
      "modern_name": "Diyarbakır",
      "region": "Türkiye",
      "bio_count": 1
    },
    "البهنسا": {
      "lat": 28.5389,
      "lon": 30.6556,
      "modern_name": "Behnesa",
      "region": "Mısır",
      "bio_count": 1
    },
    "نسا": {
      "lat": 37.95,
      "lon": 58.2167,
      "modern_name": "Nesâ",
      "region": "Türkmenistan",
      "bio_count": 1
    },
    "سبتة": {
      "lat": 35.8894,
      "lon": -5.3198,
      "modern_name": "Sebte/Ceuta",
      "region": "Fas",
      "bio_count": 1
    },
    "الجزيرة": {
      "lat": 36.0,
      "lon": 41.0,
      "modern_name": "el-Cezîre",
      "region": "Irak/Suriye",
      "bio_count": 1
    },
    "منفلوط": {
      "lat": 27.237,
      "lon": 30.9693,
      "modern_name": "Münfelût",
      "region": "Mısır",
      "bio_count": 1
    },
    "سفاقس": {
      "lat": 34.7406,
      "lon": 10.7603,
      "modern_name": "Safâkıs",
      "region": "Tunus",
      "bio_count": 1
    },
    "توزر": {
      "lat": 33.9197,
      "lon": 8.1339,
      "modern_name": "Tevzer",
      "region": "Tunus",
      "bio_count": 1
    },
    "زواوة": {
      "lat": 36.6,
      "lon": 4.2,
      "modern_name": "Züvâve/Kabylie",
      "region": "Cezayir",
      "bio_count": 1
    },
    "فارس": {
      "lat": 29.6,
      "lon": 52.5,
      "modern_name": "Fârs",
      "region": "İran",
      "bio_count": 1
    },
    "مستغانم": {
      "lat": 35.9311,
      "lon": 0.0892,
      "modern_name": "Mostagânem",
      "region": "Cezayir",
      "bio_count": 1
    },
    "عدن": {
      "lat": 12.7855,
      "lon": 45.0187,
      "modern_name": "Aden",
      "region": "Yemen",
      "bio_count": 1
    },
    "كسروان": {
      "lat": 34.0333,
      "lon": 35.7833,
      "modern_name": "Kisrevân",
      "region": "Lübnan",
      "bio_count": 1
    },
    "كاشان": {
      "lat": 33.985,
      "lon": 51.4103,
      "modern_name": "Kâşân",
      "region": "İran",
      "bio_count": 1
    },
    "المهدية": {
      "lat": 35.5047,
      "lon": 11.0622,
      "modern_name": "Mehdiye",
      "region": "Tunus",
      "bio_count": 1
    },
    "القيروان بافريقية": {
      "lat": 35.6804,
      "lon": 10.0963,
      "modern_name": "Kayrevan",
      "region": "Tunus",
      "bio_count": 1
    },
    "قنا": {
      "lat": 26.1649,
      "lon": 32.7268,
      "modern_name": "Kınâ",
      "region": "Mısır",
      "bio_count": 1
    },
    "أسكدار": {
      "lat": 41.0256,
      "lon": 29.0156,
      "modern_name": "Üsküdar",
      "region": "Türkiye",
      "bio_count": 1
    },
    "عانة": {
      "lat": 34.3722,
      "lon": 41.9505,
      "modern_name": "Âne",
      "region": "Irak",
      "bio_count": 1
    },
    "شبام": {
      "lat": 15.9264,
      "lon": 48.6286,
      "modern_name": "Şibâm",
      "region": "Yemen",
      "bio_count": 1
    },
    "سوسة": {
      "lat": 35.8254,
      "lon": 10.6361,
      "modern_name": "Sûse",
      "region": "Tunus",
      "bio_count": 1
    },
    "أسفرايين": {
      "lat": 36.9667,
      "lon": 57.5333,
      "modern_name": "İsferâyin",
      "region": "İran",
      "bio_count": 1
    },
    "استامبول": {
      "lat": 41.0082,
      "lon": 28.9784,
      "modern_name": "İstanbul",
      "region": "Türkiye",
      "bio_count": 1
    },
    "دنيسر": {
      "lat": 37.2667,
      "lon": 40.7333,
      "modern_name": "Düneyser/Kızıltepe",
      "region": "Türkiye",
      "bio_count": 1
    },
    "المحلة": {
      "lat": 30.9686,
      "lon": 31.1668,
      "modern_name": "Mahalle",
      "region": "Mısır",
      "bio_count": 1
    },
    "فاس ووفاته بها": {
      "lat": 34.0331,
      "lon": -5.0003,
      "modern_name": "Fes",
      "region": "Fas",
      "bio_count": 1
    },
    "إفريقية": {
      "lat": 35.5,
      "lon": 10.0,
      "modern_name": "İfrikıye",
      "region": "Tunus",
      "bio_count": 1
    },
    "إلبيرة": {
      "lat": 37.1833,
      "lon": -3.6167,
      "modern_name": "Elvira",
      "region": "İspanya",
      "bio_count": 1
    },
    "شنترين": {
      "lat": 39.235,
      "lon": -8.685,
      "modern_name": "Şenterîn/Santarém",
      "region": "Portekiz",
      "bio_count": 1
    },
    "الكاظمين": {
      "lat": 33.3781,
      "lon": 44.349,
      "modern_name": "Kâzımiye",
      "region": "Irak",
      "bio_count": 1
    },
    "ماوراء النهر": {
      "lat": 40.0,
      "lon": 65.0,
      "modern_name": "Mâverâünnehr",
      "region": "Orta Asya",
      "bio_count": 1
    },
    "أستراباذ": {
      "lat": 36.85,
      "lon": 54.48,
      "modern_name": "Esterâbâd",
      "region": "İran",
      "bio_count": 1
    },
    "صيداء": {
      "lat": 33.5572,
      "lon": 35.3729,
      "modern_name": "Sayda/Sidon",
      "region": "Lübnan",
      "bio_count": 1
    },
    "ترمذ": {
      "lat": 37.224,
      "lon": 67.2783,
      "modern_name": "Tirmiz",
      "region": "Özbekistan",
      "bio_count": 1
    },
    "بعقوبا": {
      "lat": 33.7475,
      "lon": 44.6458,
      "modern_name": "Ba'kûba",
      "region": "Irak",
      "bio_count": 1
    },
    "سجلماسة": {
      "lat": 31.28,
      "lon": -4.27,
      "modern_name": "Sicilmâse",
      "region": "Fas",
      "bio_count": 1
    },
    "فاس وبها وفاته": {
      "lat": 34.0331,
      "lon": -5.0003,
      "modern_name": "Fes",
      "region": "Fas",
      "bio_count": 1
    },
    "دمنهور": {
      "lat": 31.034,
      "lon": 30.4687,
      "modern_name": "Dimenhûr",
      "region": "Mısır",
      "bio_count": 1
    },
    "آمل": {
      "lat": 36.4666,
      "lon": 52.35,
      "modern_name": "Âmol",
      "region": "İran",
      "bio_count": 1
    },
    "سامرا": {
      "lat": 34.1956,
      "lon": 43.8753,
      "modern_name": "Sâmerrâ",
      "region": "Irak",
      "bio_count": 1
    },
    "صقلية": {
      "lat": 37.5,
      "lon": 14.0,
      "modern_name": "Sicilya",
      "region": "İtalya",
      "bio_count": 1
    },
    "الناصرة": {
      "lat": 32.6996,
      "lon": 35.3035,
      "modern_name": "Nâsıra/Nazaret",
      "region": "Filistin",
      "bio_count": 1
    },
    "الفسطاط": {
      "lat": 30.0044,
      "lon": 31.2313,
      "modern_name": "Fustat",
      "region": "Mısır",
      "bio_count": 1
    },
    "تستر": {
      "lat": 32.0644,
      "lon": 48.8572,
      "modern_name": "Tüster/Şuşter",
      "region": "İran",
      "bio_count": 1
    },
    "ليدن": {
      "lat": 52.1601,
      "lon": 4.497,
      "modern_name": "Leiden",
      "region": "Hollanda",
      "bio_count": 1
    },
    "منبج": {
      "lat": 36.5281,
      "lon": 37.9542,
      "modern_name": "Münbiç",
      "region": "Suriye",
      "bio_count": 1
    },
    "الآستانة": {
      "lat": 41.0082,
      "lon": 28.9784,
      "modern_name": "İstanbul",
      "region": "Türkiye",
      "bio_count": 1
    }
  }
}